Name,Province,ClimateID,Latitude,Longitude
ACTIVE PASS,BC,1010066,48.87,-123.28
ALBERT HEAD,BC,1010235,48.40,-123.48
BAMBERTON OCEAN CEMENT,BC,1010595,48.58,-123.52
BEAR CREEK,BC,1010720,48.50,-124.00
BEAVER LAKE,BC,1010774,48.50,-123.35
BECHER BAY,BC,1010780,48.33,-123.63
BRENTWOOD BAY 2,BC,1010960,48.60,-123.47
BRENTWOOD CLARKE ROAD,BC,1010961,48.57,-123.45
